{
    "lastUpdated":[1496087549138],
    "dates": [
       {
          "id": 100000,
          "name": "Mr. Tramps",
          "description": "Neighborhood pub features local & craft beers plus meals such as burgers, pizza & club sandwiches.",
          "latitude": 30.361358,
          "longitude": -97.7161855,
          "date":"2018-06-20",
          "type": "pubmain"
       },
       {
          "id": 100001,
          "name": "Haymaker",
          "description": "Neighborhood pub features local & craft beers plus meals such as burgers, pizza & club sandwiches.",
          "latitude": 30.2848235,
          "longitude": -97.7197796,
          "date":"2018-06-21",
          "type": "pubmain"
       },
       {
          "id": 100002,
          "name": "B.D. Riley's @ Mueller",
          "description": "Neighborhood pub features local & craft beers plus meals such as burgers, pizza & club sandwiches.",
          "latitude": 30.2982286,
          "longitude": -97.7052838,
          "date":"2018-06-22",
          "type": "pubmain"
       },
       {
          "id": 100003,
          "name": "B.D. Riley's Downtown",
          "description": "Neighborhood pub features local & craft beers plus meals such as burgers, pizza & club sandwiches.",
          "latitude": 30.267722,
          "longitude": -97.743317,
          "date":"2018-06-23",
            "type": "pubmain"
       },
       {
            "id": 1000004,
            "name": "Austin Stadium",
        "description": "Neighborhood pub features local & craft beers plus meals such as burgers, pizza & club sandwiches.",
        "latitude": 30.388073,
        "longitude": -97.719939,
        "date":"2018-06-23",
        "type": "stadium"
        },
        {
        "id": 1000005,
        "name": "Soccer Corner",
        "description": "Neighborhood pub features local & craft beers plus meals such as burgers, pizza & club sandwiches.",
        "latitude": 30.3731628,
        "longitude": -97.72839,
        "date":"2018-06-20",
        "type": "store"
         },
         {
        "id": 1000006,
            "name": "Soccer Corner",
            "description": "Neighborhood pub features local & craft beers plus meals such as burgers, pizza & club sandwiches.",
            "latitude": 30.264563,
            "longitude": -97.760819,
            "date":"2018-06-20",

            "type": "pubmain"
         }
    ]
 }